{
"type": "FeatureCollection",
"features": [
{ "type": "Feature", "properties": { "id": 1, "name": "King's Landing", "size": 5, "confirmed": 1, "type": "City" }, "geometry": { "type": "Point", "coordinates": [ 19.078229700576749, 3.953605833573462 ] } },
{ "type": "Feature", "properties": { "id": 2, "name": "Hayford Castle", "size": 3, "confirmed": 0, "type": "Castle" }, "geometry": { "type": "Point", "coordinates": [ 18.802566452963266, 4.487995391976725 ] } },
{ "type": "Feature", "properties": { "id": 3, "name": "Rosby", "size": 3, "confirmed": 1, "type": "Castle" }, "geometry": { "type": "Point", "coordinates": [ 19.986983966014368, 4.621154757349338 ] } },
{ "type": "Feature", "properties": { "id": 4, "name": "Old Stone Bridge Inn", "size": 1, "confirmed": 0, "type": "Other" }, "geometry": { "type": "Point", "coordinates": [ 20.398142708217517, 5.041658016420776 ] } },
{ "type": "Feature", "properties": { "id": 5, "name": "Brindlewood", "size": 1, "confirmed": 0, "type": "Other" }, "geometry": { "type": "Point", "coordinates": [ 18.650718053854106, 5.527572893569968 ] } },
{ "type": "Feature", "properties": { "id": 6, "name": "Sow's Horn", "size": 3, "confirmed": 1, "type": "Castle" }, "geometry": { "type": "Point", "coordinates": [ 18.856297424955685, 6.415301996054055 ] } },
{ "type": "Feature", "properties": { "id": 7, "name": "Tumbleton", "size": 4, "confirmed": 1, "type": "Town" }, "geometry": { "type": "Point", "coordinates": [ 16.791159197071647, 2.336420383061373 ] } },
{ "type": "Feature", "properties": { "id": 8, "name": "High Heart", "size": 2, "confirmed": 1, "type": "Ruin" }, "geometry": { "type": "Point", "coordinates": [ 14.237769962821377, 8.452406673333286 ] } },
{ "type": "Feature", "properties": { "id": 9, "name": "Duskendale", "size": 4, "confirmed": 1, "type": "Town" }, "geometry": { "type": "Point", "coordinates": [ 20.919099523622627, 5.838278079439363 ] } },
{ "type": "Feature", "properties": { "id": 10, "name": "Antlers", "size": 3, "confirmed": 1, "type": "Castle" }, "geometry": { "type": "Point", "coordinates": [ 19.60152264519888, 7.314711744623416 ] } },
{ "type": "Feature", "properties": { "id": 11, "name": "Stokeworth", "size": 3, "confirmed": 0, "type": "Castle" }, "geometry": { "type": "Point", "coordinates": [ 19.592178128330627, 5.072027696242564 ] } },
{ "type": "Feature", "properties": { "id": 12, "name": "Ivy Inn", "size": 1, "confirmed": 0, "type": "Other" }, "geometry": { "type": "Point", "coordinates": [ 18.508214171613218, 6.268125855379012 ] } },
{ "type": "Feature", "properties": { "id": 13, "name": "Village", "size": 1, "confirmed": 0, "type": "Other" }, "geometry": { "type": "Point", "coordinates": [ 17.629829585997381, 7.006342687971042 ] } },
{ "type": "Feature", "properties": { "id": 14, "name": "Holdfast", "size": 1, "confirmed": 0, "type": "Other" }, "geometry": { "type": "Point", "coordinates": [ 16.807512101591072, 6.464360709612336 ] } },
{ "type": "Feature", "properties": { "id": 15, "name": "Harrenhal", "size": 3, "confirmed": 1, "type": "Castle" }, "geometry": { "type": "Point", "coordinates": [ 16.900957270273608, 8.379986667604314 ] } },
{ "type": "Feature", "properties": { "id": 16, "name": "Rushing Falls", "size": 1, "confirmed": 0, "type": "Other" }, "geometry": { "type": "Point", "coordinates": [ 16.396353359387916, 7.922105341059897 ] } },
{ "type": "Feature", "properties": { "id": 17, "name": "Tumblers Falls", "size": 1, "confirmed": 0, "type": "Other" }, "geometry": { "type": "Point", "coordinates": [ 14.648928705024511, 6.847485901210739 ] } },
{ "type": "Feature", "properties": { "id": 18, "name": "Stoney Sept", "size": 4, "confirmed": 1, "type": "Town" }, "geometry": { "type": "Point", "coordinates": [ 13.994812524246766, 6.137302619223462 ] } },
{ "type": "Feature", "properties": { "id": 19, "name": "Hollow Hill", "size": 1, "confirmed": 0, "type": "Other" }, "geometry": { "type": "Point", "coordinates": [ 13.406107961546793, 6.52042781082185 ] } },
{ "type": "Feature", "properties": { "id": 20, "name": "Sept", "size": 1, "confirmed": 0, "type": "Other" }, "geometry": { "type": "Point", "coordinates": [ 13.742510568803919, 6.987653654234528 ] } },
{ "type": "Feature", "properties": { "id": 21, "name": "Acorn Hall", "size": 3, "confirmed": 1, "type": "Castle" }, "geometry": { "type": "Point", "coordinates": [ 14.050879625456288, 8.015550509742418 ] } },
{ "type": "Feature", "properties": { "id": 22, "name": "Pinkmaiden", "size": 3, "confirmed": 1, "type": "Castle" }, "geometry": { "type": "Point", "coordinates": [ 12.985604702475385, 7.604391767539262 ] } },
{ "type": "Feature", "properties": { "id": 23, "name": "Mummer's Ford", "size": 1, "confirmed": 0, "type": "Other" }, "geometry": { "type": "Point", "coordinates": [ 12.742647263900793, 7.239955609677374 ] } },
{ "type": "Feature", "properties": { "id": 24, "name": "Sherrer", "size": 1, "confirmed": 0, "type": "Other" }, "geometry": { "type": "Point", "coordinates": [ 12.751991780769046, 7.043720755444049 ] } },
{ "type": "Feature", "properties": { "id": 25, "name": "Wendish Town", "size": 1, "confirmed": 0, "type": "Other" }, "geometry": { "type": "Point", "coordinates": [ 12.583790477140482, 7.081098822917063 ] } },
{ "type": "Feature", "properties": { "id": 26, "name": "Lord Goodbrook's Village", "size": 1, "confirmed": 0, "type": "Other" }, "geometry": { "type": "Point", "coordinates": [ 14.658273221892761, 8.679011207388427 ] } },
{ "type": "Feature", "properties": { "id": 27, "name": "Sallydance", "size": 1, "confirmed": 0, "type": "Other" }, "geometry": { "type": "Point", "coordinates": [ 14.200391895348339, 8.763111859202709 ] } },
{ "type": "Feature", "properties": { "id": 28, "name": "Lady of the Leaves", "size": 1, "confirmed": 0, "type": "Other" }, "geometry": { "type": "Point", "coordinates": [ 14.032190591719775, 9.006069297777302 ] } },
{ "type": "Feature", "properties": { "id": 29, "name": "Lord Lychester's Keep", "size": 1, "confirmed": 0, "type": "Other" }, "geometry": { "type": "Point", "coordinates": [ 14.611550637551495, 9.426572556848711 ] } },
{ "type": "Feature", "properties": { "id": 30, "name": "Unnamed Village", "size": 1, "confirmed": 0, "type": "Other" }, "geometry": { "type": "Point", "coordinates": [ 14.751718390575297, 9.604118377345522 ] } },
{ "type": "Feature", "properties": { "id": 31, "name": "Inn (They Ley with Lions)", "size": 1, "confirmed": 0, "type": "Other" }, "geometry": { "type": "Point", "coordinates": [ 13.835955737486453, 9.819042265315353 ] } },
{ "type": "Feature", "properties": { "id": 32, "name": "Riverrun", "size": 3, "confirmed": 1, "type": "Castle" }, "geometry": { "type": "Point", "coordinates": [ 13.312662792864254, 9.491984174926479 ] } },
{ "type": "Feature", "properties": { "id": 33, "name": "Raventree Hall", "size": 3, "confirmed": 0, "type": "Castle" }, "geometry": { "type": "Point", "coordinates": [ 15.798304279819691, 8.837867994148738 ] } },
{ "type": "Feature", "properties": { "id": 34, "name": "Darry", "size": 3, "confirmed": 0, "type": "Castle" }, "geometry": { "type": "Point", "coordinates": [ 17.377527630554535, 9.370505455639183 ] } },
{ "type": "Feature", "properties": { "id": 35, "name": "Inn of the Kneeling Man", "size": 1, "confirmed": 1, "type": "Other" }, "geometry": { "type": "Point", "coordinates": [ 14.873197109862593, 10.276923591859777 ] } },
{ "type": "Feature", "properties": { "id": 36, "name": "BWB hideout", "size": 1, "confirmed": 0, "type": "Other" }, "geometry": { "type": "Point", "coordinates": [ 16.013228167789524, 10.361024243674059 ] } },
{ "type": "Feature", "properties": { "id": 37, "name": "Lort Harroway's Town", "size": 1, "confirmed": 0, "type": "Other" }, "geometry": { "type": "Point", "coordinates": [ 16.882268236537101, 9.725597096632825 ] } },
{ "type": "Feature", "properties": { "id": 38, "name": "Crossroads Inn", "size": 1, "confirmed": 0, "type": "Other" }, "geometry": { "type": "Point", "coordinates": [ 17.340149563081521, 9.819042265315353 ] } },
{ "type": "Feature", "properties": { "id": 39, "name": "Saltpans", "size": 1, "confirmed": 1, "type": "Other" }, "geometry": { "type": "Point", "coordinates": [ 19.181019386127474, 9.09951446645983 ] } },
{ "type": "Feature", "properties": { "id": 40, "name": "Quiet Isle", "size": 1, "confirmed": 1, "type": "Other" }, "geometry": { "type": "Point", "coordinates": [ 19.227741970468738, 8.931313162831273 ] } },
{ "type": "Feature", "properties": { "id": 41, "name": "Wickenden", "size": 3, "confirmed": 1, "type": "Castle" }, "geometry": { "type": "Point", "coordinates": [ 21.63862732247815, 9.090169949591584 ] } },
{ "type": "Feature", "properties": { "id": 42, "name": "Maidenpool", "size": 4, "confirmed": 1, "type": "Town" }, "geometry": { "type": "Point", "coordinates": [ 20.171538174162347, 8.230474397712257 ] } },
{ "type": "Feature", "properties": { "id": 43, "name": "Rook's Rest", "size": 3, "confirmed": 1, "type": "Castle" }, "geometry": { "type": "Point", "coordinates": [ 22.068475098417807, 7.267989160282141 ] } },
{ "type": "Feature", "properties": { "id": 44, "name": "Dyre Den", "size": 3, "confirmed": 1, "type": "Castle" }, "geometry": { "type": "Point", "coordinates": [ 23.918689438332009, 9.183615118274119 ] } },
{ "type": "Feature", "properties": { "id": 45, "name": "The Whispers", "size": 2, "confirmed": 1, "type": "Ruin" }, "geometry": { "type": "Point", "coordinates": [ 24.582150135978008, 8.482776353155103 ] } },
{ "type": "Feature", "properties": { "id": 46, "name": "Dragonstone", "size": 3, "confirmed": 1, "type": "Castle" }, "geometry": { "type": "Point", "coordinates": [ 24.348537214271669, 7.053065272312317 ] } },
{ "type": "Feature", "properties": { "id": 47, "name": "Sharp Point", "size": 3, "confirmed": 1, "type": "Castle" }, "geometry": { "type": "Point", "coordinates": [ 23.806555235912967, 5.74483291075682 ] } },
{ "type": "Feature", "properties": { "id": 48, "name": "Stonedance", "size": 3, "confirmed": 1, "type": "Castle" }, "geometry": { "type": "Point", "coordinates": [ 24.208369461247866, 4.950548976955268 ] } },
{ "type": "Feature", "properties": { "id": 49, "name": "Haystack Hall", "size": 3, "confirmed": 1, "type": "Castle" }, "geometry": { "type": "Point", "coordinates": [ 22.741280312932069, 1.549144836910983 ] } },
{ "type": "Feature", "properties": { "id": 50, "name": "Bronzegate", "size": 3, "confirmed": 1, "type": "Castle" }, "geometry": { "type": "Point", "coordinates": [ 22.040441547813053, 1.296842881468137 ] } },
{ "type": "Feature", "properties": { "id": 51, "name": "Felwood", "size": 3, "confirmed": 1, "type": "Castle" }, "geometry": { "type": "Point", "coordinates": [ 21.283535681484519, 0.427802812720564 ] } },
{ "type": "Feature", "properties": { "id": 52, "name": "Storm's End", "size": 3, "confirmed": 1, "type": "Castle" }, "geometry": { "type": "Point", "coordinates": [ 22.713246762327309, -0.656161143996854 ] } },
{ "type": "Feature", "properties": { "id": 53, "name": "Griffin's Roost", "size": 3, "confirmed": 1, "type": "Castle" }, "geometry": { "type": "Point", "coordinates": [ 21.816173142974968, -1.263554740433328 ] } },
{ "type": "Feature", "properties": { "id": 54, "name": "Rain House", "size": 3, "confirmed": 1, "type": "Castle" }, "geometry": { "type": "Point", "coordinates": [ 25.058720496258942, -1.992427056157105 ] } },
{ "type": "Feature", "properties": { "id": 55, "name": "Greenstone", "size": 3, "confirmed": 1, "type": "Castle" }, "geometry": { "type": "Point", "coordinates": [ 24.797074023947843, -4.0855988346459 ] } },
{ "type": "Feature", "properties": { "id": 56, "name": "Weeping Tower", "size": 3, "confirmed": 1, "type": "Castle" }, "geometry": { "type": "Point", "coordinates": [ 22.872103549087615, -4.590202745531592 ] } },
{ "type": "Feature", "properties": { "id": 57, "name": "Mistwood", "size": 3, "confirmed": 1, "type": "Castle" }, "geometry": { "type": "Point", "coordinates": [ 23.002926785243169, -3.805263328598286 ] } },
{ "type": "Feature", "properties": { "id": 58, "name": "Stonehelm", "size": 3, "confirmed": 1, "type": "Castle" }, "geometry": { "type": "Point", "coordinates": [ 20.040714938006801, -3.235247799634827 ] } },
{ "type": "Feature", "properties": { "id": 59, "name": "Crow's Nest", "size": 3, "confirmed": 1, "type": "Castle" }, "geometry": { "type": "Point", "coordinates": [ 21.077956310382937, -2.244729011599951 ] } },
{ "type": "Feature", "properties": { "id": 60, "name": "Grandview", "size": 4, "confirmed": 0, "type": "Town" }, "geometry": { "type": "Point", "coordinates": [ 20.283672376581389, -1.179454088619053 ] } },
{ "type": "Feature", "properties": { "id": 61, "name": "Summerhall", "size": 2, "confirmed": 1, "type": "Ruin" }, "geometry": { "type": "Point", "coordinates": [ 18.498869654744965, -1.702747033241252 ] } },
{ "type": "Feature", "properties": { "id": 62, "name": "Blackhaven", "size": 3, "confirmed": 1, "type": "Castle" }, "geometry": { "type": "Point", "coordinates": [ 17.863442507703727, -2.852122608036439 ] } },
{ "type": "Feature", "properties": { "id": 63, "name": "Fawnton", "size": 4, "confirmed": 0, "type": "Town" }, "geometry": { "type": "Point", "coordinates": [ 18.601659340295754, 0.923062206737995 ] } },
{ "type": "Feature", "properties": { "id": 64, "name": "Grassy Vale", "size": 3, "confirmed": 1, "type": "Castle" }, "geometry": { "type": "Point", "coordinates": [ 17.13457019197995, 0.175500857277711 ] } },
{ "type": "Feature", "properties": { "id": 65, "name": "Wyl", "size": 3, "confirmed": 1, "type": "Castle" }, "geometry": { "type": "Point", "coordinates": [ 17.779341855889431, -4.291178205747478 ] } },
{ "type": "Feature", "properties": { "id": 66, "name": "Ghaston Grey", "size": 3, "confirmed": 1, "type": "Castle" }, "geometry": { "type": "Point", "coordinates": [ 19.32118713915126, -6.169426096266434 ] } },
{ "type": "Feature", "properties": { "id": 67, "name": "Yronwood", "size": 3, "confirmed": 1, "type": "Castle" }, "geometry": { "type": "Point", "coordinates": [ 16.872923719668837, -6.926331962594972 ] } },
{ "type": "Feature", "properties": { "id": 68, "name": "Vulture's Roost", "size": 3, "confirmed": 1, "type": "Castle" }, "geometry": { "type": "Point", "coordinates": [ 14.854508076126073, -4.805126633501416 ] } },
{ "type": "Feature", "properties": { "id": 69, "name": "Nightsong", "size": 3, "confirmed": 1, "type": "Castle" }, "geometry": { "type": "Point", "coordinates": [ 13.611687332648355, -4.272489172010964 ] } },
{ "type": "Feature", "properties": { "id": 70, "name": "Ashford", "size": 3, "confirmed": 1, "type": "Castle" }, "geometry": { "type": "Point", "coordinates": [ 14.648928705024495, -1.852259303133309 ] } },
{ "type": "Feature", "properties": { "id": 71, "name": "Cider Hall", "size": 3, "confirmed": 1, "type": "Castle" }, "geometry": { "type": "Point", "coordinates": [ 12.938882118134103, -1.300932807906349 ] } },
{ "type": "Feature", "properties": { "id": 72, "name": "Highgarden", "size": 3, "confirmed": 1, "type": "Castle" }, "geometry": { "type": "Point", "coordinates": [ 10.714887103489763, -2.76802195622215 ] } },
{ "type": "Feature", "properties": { "id": 73, "name": "Horn Hill", "size": 3, "confirmed": 1, "type": "Castle" }, "geometry": { "type": "Point", "coordinates": [ 10.798987755304045, -4.440690475639535 ] } },
{ "type": "Feature", "properties": { "id": 74, "name": "Brightwater Keep", "size": 3, "confirmed": 1, "type": "Castle" }, "geometry": { "type": "Point", "coordinates": [ 7.920876559881961, -4.52479112745381 ] } },
{ "type": "Feature", "properties": { "id": 75, "name": "Bandallon", "size": 3, "confirmed": 1, "type": "Castle" }, "geometry": { "type": "Point", "coordinates": [ 6.453787411566156, -4.41265692503476 ] } },
{ "type": "Feature", "properties": { "id": 76, "name": "Honeyholt", "size": 3, "confirmed": 1, "type": "Castle" }, "geometry": { "type": "Point", "coordinates": [ 8.154489481588298, -5.431209263674404 ] } },
{ "type": "Feature", "properties": { "id": 77, "name": "Oldtown", "size": 5, "confirmed": 1, "type": "City" }, "geometry": { "type": "Point", "coordinates": [ 7.752675256253397, -6.57124032160133 ] } },
{ "type": "Feature", "properties": { "id": 78, "name": "Blackcrown", "size": 3, "confirmed": 1, "type": "Castle" }, "geometry": { "type": "Point", "coordinates": [ 6.350997726015367, -7.244045536115586 ] } },
{ "type": "Feature", "properties": { "id": 79, "name": "Three Towers", "size": 3, "confirmed": 1, "type": "Castle" }, "geometry": { "type": "Point", "coordinates": [ 6.995769389924861, -8.066363020521898 ] } },
{ "type": "Feature", "properties": { "id": 80, "name": "Uplands", "size": 3, "confirmed": 1, "type": "Castle" }, "geometry": { "type": "Point", "coordinates": [ 9.920603169688215, -6.823542277044169 ] } },
{ "type": "Feature", "properties": { "id": 81, "name": "Sunflower Hall", "size": 3, "confirmed": 1, "type": "Castle" }, "geometry": { "type": "Point", "coordinates": [ 9.145008269623172, -9.729687023071023 ] } },
{ "type": "Feature", "properties": { "id": 82, "name": "Blackmont", "size": 3, "confirmed": 1, "type": "Castle" }, "geometry": { "type": "Point", "coordinates": [ 12.144598184332553, -6.627307422810858 ] } },
{ "type": "Feature", "properties": { "id": 83, "name": "High Hermitage", "size": 3, "confirmed": 1, "type": "Castle" }, "geometry": { "type": "Point", "coordinates": [ 12.200665285542074, -7.346835221666367 ] } },
{ "type": "Feature", "properties": { "id": 84, "name": "Starfall", "size": 3, "confirmed": 1, "type": "Castle" }, "geometry": { "type": "Point", "coordinates": [ 11.443759419213539, -8.16915270607268 ] } },
{ "type": "Feature", "properties": { "id": 85, "name": "Sandstone", "size": 3, "confirmed": 1, "type": "Castle" }, "geometry": { "type": "Point", "coordinates": [ 13.66775443385788, -9.430662483286909 ] } },
{ "type": "Feature", "properties": { "id": 86, "name": "Skyreach", "size": 3, "confirmed": 1, "type": "Castle" }, "geometry": { "type": "Point", "coordinates": [ 14.163013827875318, -7.290768120456853 ] } },
{ "type": "Feature", "properties": { "id": 87, "name": "Kingsgrave", "size": 3, "confirmed": 1, "type": "Castle" }, "geometry": { "type": "Point", "coordinates": [ 14.331215131503882, -6.029258343242631 ] } },
{ "type": "Feature", "properties": { "id": 88, "name": "Tower of Joy", "size": 1, "confirmed": 1, "type": "Other" }, "geometry": { "type": "Point", "coordinates": [ 14.368593198976896, -5.13218472389029 ] } },
{ "type": "Feature", "properties": { "id": 89, "name": "Hellholt", "size": 3, "confirmed": 1, "type": "Castle" }, "geometry": { "type": "Point", "coordinates": [ 16.200118505154588, -9.140982460371063 ] } },
{ "type": "Feature", "properties": { "id": 90, "name": "Vaith", "size": 3, "confirmed": 1, "type": "Castle" }, "geometry": { "type": "Point", "coordinates": [ 20.395806579000418, -9.30918376399962 ] } },
{ "type": "Feature", "properties": { "id": 91, "name": "Salt Shore", "size": 3, "confirmed": 1, "type": "Castle" }, "geometry": { "type": "Point", "coordinates": [ 21.358291816430533, -10.112812214669418 ] } },
{ "type": "Feature", "properties": { "id": 92, "name": "Godsgrace", "size": 3, "confirmed": 1, "type": "Castle" }, "geometry": { "type": "Point", "coordinates": [ 21.470426018849576, -8.542933380802822 ] } },
{ "type": "Feature", "properties": { "id": 93, "name": "The Tor", "size": 3, "confirmed": 1, "type": "Castle" }, "geometry": { "type": "Point", "coordinates": [ 20.638764017575014, -7.290768120456853 ] } },
{ "type": "Feature", "properties": { "id": 94, "name": "Ghost Hill", "size": 3, "confirmed": 1, "type": "Castle" }, "geometry": { "type": "Point", "coordinates": [ 23.834588786517717, -7.449624907217157 ] } },
{ "type": "Feature", "properties": { "id": 95, "name": "Lemonwood", "size": 3, "confirmed": 1, "type": "Castle" }, "geometry": { "type": "Point", "coordinates": [ 23.984101056409774, -9.589519270047219 ] } },
{ "type": "Feature", "properties": { "id": 96, "name": "Sunspear", "size": 3, "confirmed": 1, "type": "Castle" }, "geometry": { "type": "Point", "coordinates": [ 24.591494652846251, -8.926058572401217 ] } },
{ "type": "Feature", "properties": { "id": 97, "name": "Planky Town", "size": 4, "confirmed": 1, "type": "Town" }, "geometry": { "type": "Point", "coordinates": [ 24.049512674487552, -9.103604392898035 ] } },
{ "type": "Feature", "properties": { "id": 98, "name": "Water Gardens", "size": 1, "confirmed": 0, "type": "Other" }, "geometry": { "type": "Point", "coordinates": [ 24.7223178890018, -8.720479201299639 ] } },
{ "type": "Feature", "properties": { "id": 99, "name": "Shandystone", "size": 1, "confirmed": 0, "type": "Other" }, "geometry": { "type": "Point", "coordinates": [ 22.619801593644755, -8.524244347066315 ] } },
{ "type": "Feature", "properties": { "id": 100, "name": "Tall Trees Town", "size": 4, "confirmed": 0, "type": "Town" }, "geometry": { "type": "Point", "coordinates": [ 12.639857578349998, -24.965921776758421 ] } },
{ "type": "Feature", "properties": { "id": 101, "name": "Longtable", "size": 3, "confirmed": 1, "type": "Castle" }, "geometry": { "type": "Point", "coordinates": [ 14.130308018836429, -0.226313368057212 ] } },
{ "type": "Feature", "properties": { "id": 102, "name": "Bitterbridge", "size": 3, "confirmed": 1, "type": "Castle" }, "geometry": { "type": "Point", "coordinates": [ 14.419988041752289, 0.736171869372903 ] } },
{ "type": "Feature", "properties": { "id": 103, "name": "Goldengrove", "size": 3, "confirmed": 1, "type": "Castle" }, "geometry": { "type": "Point", "coordinates": [ 10.775626463133413, 0.736171869372903 ] } },
{ "type": "Feature", "properties": { "id": 104, "name": "Red Lake", "size": 3, "confirmed": 1, "type": "Castle" }, "geometry": { "type": "Point", "coordinates": [ 8.775899853327159, 1.474388701964934 ] } },
{ "type": "Feature", "properties": { "id": 105, "name": "Old Oak", "size": 3, "confirmed": 1, "type": "Castle" }, "geometry": { "type": "Point", "coordinates": [ 7.336844255616115, -0.188935300584191 ] } },
{ "type": "Feature", "properties": { "id": 106, "name": "Crakehall", "size": 3, "confirmed": 1, "type": "Castle" }, "geometry": { "type": "Point", "coordinates": [ 6.542560321814565, 2.296706186371246 ] } },
{ "type": "Feature", "properties": { "id": 107, "name": "Cornfield", "size": 3, "confirmed": 1, "type": "Castle" }, "geometry": { "type": "Point", "coordinates": [ 8.54228693162082, 2.894755265939473 ] } },
{ "type": "Feature", "properties": { "id": 108, "name": "Silverhill", "size": 3, "confirmed": 1, "type": "Castle" }, "geometry": { "type": "Point", "coordinates": [ 10.710214845055638, 3.632972098531496 ] } },
{ "type": "Feature", "properties": { "id": 109, "name": "Clegane Hall", "size": 3, "confirmed": 0, "type": "Castle" }, "geometry": { "type": "Point", "coordinates": [ 9.159025044925553, 4.053475357602913 ] } },
{ "type": "Feature", "properties": { "id": 110, "name": "Tarbeck Hall", "size": 2, "confirmed": 0, "type": "Ruin" }, "geometry": { "type": "Point", "coordinates": [ 7.02847519896375, 4.016097290129899 ] } },
{ "type": "Feature", "properties": { "id": 111, "name": "Lannisport", "size": 5, "confirmed": 1, "type": "City" }, "geometry": { "type": "Point", "coordinates": [ 7.364877806220878, 5.221539966134607 ] } },
{ "type": "Feature", "properties": { "id": 112, "name": "Feastfires", "size": 3, "confirmed": 1, "type": "Castle" }, "geometry": { "type": "Point", "coordinates": [ 5.701553803671749, 4.997271561296522 ] } },
{ "type": "Feature", "properties": { "id": 113, "name": "Kayce", "size": 4, "confirmed": 1, "type": "Town" }, "geometry": { "type": "Point", "coordinates": [ 5.972544792851102, 5.53925353965522 ] } },
{ "type": "Feature", "properties": { "id": 114, "name": "Oxcross", "size": 1, "confirmed": 0, "type": "Other" }, "geometry": { "type": "Point", "coordinates": [ 8.112439155681159, 5.969101315594891 ] } },
{ "type": "Feature", "properties": { "id": 115, "name": "Sarsfield", "size": 3, "confirmed": 1, "type": "Castle" }, "geometry": { "type": "Point", "coordinates": [ 8.96279019069223, 6.455016192744068 ] } },
{ "type": "Feature", "properties": { "id": 116, "name": "Deep Den", "size": 3, "confirmed": 1, "type": "Castle" }, "geometry": { "type": "Point", "coordinates": [ 11.270885857150851, 5.05333866250605 ] } },
{ "type": "Feature", "properties": { "id": 117, "name": "Hornvale", "size": 3, "confirmed": 1, "type": "Castle" }, "geometry": { "type": "Point", "coordinates": [ 11.055961969181022, 5.94106776499013 ] } },
{ "type": "Feature", "properties": { "id": 118, "name": "Golden Tooth", "size": 1, "confirmed": 1, "type": "Other" }, "geometry": { "type": "Point", "coordinates": [ 10.644803226977865, 7.296022710886888 ] } },
{ "type": "Feature", "properties": { "id": 119, "name": "Wayfarer's Rest", "size": 3, "confirmed": 0, "type": "Castle" }, "geometry": { "type": "Point", "coordinates": [ 11.981069139138121, 7.996861476005911 ] } },
{ "type": "Feature", "properties": { "id": 120, "name": "Castamere", "size": 2, "confirmed": 0, "type": "Ruin" }, "geometry": { "type": "Point", "coordinates": [ 8.420808212333528, 7.697836936221798 ] } },
{ "type": "Feature", "properties": { "id": 121, "name": "Pendric Hills", "size": 1, "confirmed": 0, "type": "Other" }, "geometry": { "type": "Point", "coordinates": [ 9.177714078662062, 8.763111859202702 ] } },
{ "type": "Feature", "properties": { "id": 122, "name": "The Crag", "size": 3, "confirmed": 1, "type": "Castle" }, "geometry": { "type": "Point", "coordinates": [ 8.402119178597021, 8.809834443543956 ] } },
{ "type": "Feature", "properties": { "id": 123, "name": "Banefort", "size": 3, "confirmed": 1, "type": "Castle" }, "geometry": { "type": "Point", "coordinates": [ 8.402119178597021, 10.155444872572467 ] } },
{ "type": "Feature", "properties": { "id": 124, "name": "Ashemark", "size": 3, "confirmed": 1, "type": "Castle" }, "geometry": { "type": "Point", "coordinates": [ 9.140336011189049, 8.015550509742404 ] } },
{ "type": "Feature", "properties": { "id": 125, "name": "Nunn's Deep", "size": 1, "confirmed": 0, "type": "Other" }, "geometry": { "type": "Point", "coordinates": [ 9.813141225703303, 9.501328691794718 ] } },
{ "type": "Feature", "properties": { "id": 126, "name": "Stone Mill", "size": 1, "confirmed": 0, "type": "Other" }, "geometry": { "type": "Point", "coordinates": [ 13.22388988261584, 8.538843454364617 ] } },
{ "type": "Feature", "properties": { "id": 127, "name": "Stone Hedge", "size": 3, "confirmed": 1, "type": "Castle" }, "geometry": { "type": "Point", "coordinates": [ 15.204927458685589, 9.435917073716951 ] } },
{ "type": "Feature", "properties": { "id": 128, "name": "Fairmarket", "size": 4, "confirmed": 1, "type": "Town" }, "geometry": { "type": "Point", "coordinates": [ 14.803113233350686, 11.482366267864471 ] } },
{ "type": "Feature", "properties": { "id": 129, "name": "Oldstones", "size": 2, "confirmed": 1, "type": "Ruin" }, "geometry": { "type": "Point", "coordinates": [ 13.812594445315813, 11.977625661881909 ] } },
{ "type": "Feature", "properties": { "id": 130, "name": "Palisade Village", "size": 1, "confirmed": 0, "type": "Other" }, "geometry": { "type": "Point", "coordinates": [ 17.541056675748969, 11.145963660607343 ] } },
{ "type": "Feature", "properties": { "id": 131, "name": "The Bloody Gate", "size": 3, "confirmed": 1, "type": "Castle" }, "geometry": { "type": "Point", "coordinates": [ 19.867841375944096, 11.669256605229542 ] } },
{ "type": "Feature", "properties": { "id": 132, "name": "The Eyrie", "size": 3, "confirmed": 1, "type": "Castle" }, "geometry": { "type": "Point", "coordinates": [ 19.942597510890124, 12.211238583588248 ] } },
{ "type": "Feature", "properties": { "id": 133, "name": "Strongsong", "size": 3, "confirmed": 1, "type": "Castle" }, "geometry": { "type": "Point", "coordinates": [ 18.307307058945756, 13.827840001796105 ] } },
{ "type": "Feature", "properties": { "id": 134, "name": "Heart's Home", "size": 3, "confirmed": 1, "type": "Castle" }, "geometry": { "type": "Point", "coordinates": [ 20.839671130242465, 13.790461934323098 ] } },
{ "type": "Feature", "properties": { "id": 135, "name": "Redfort", "size": 3, "confirmed": 1, "type": "Castle" }, "geometry": { "type": "Point", "coordinates": [ 21.680677648385281, 10.949728806374026 ] } },
{ "type": "Feature", "properties": { "id": 136, "name": "Ironoaks", "size": 3, "confirmed": 1, "type": "Castle" }, "geometry": { "type": "Point", "coordinates": [ 22.624473852078886, 12.370095370348558 ] } },
{ "type": "Feature", "properties": { "id": 137, "name": "Old Anchor", "size": 3, "confirmed": 1, "type": "Castle" }, "geometry": { "type": "Point", "coordinates": [ 23.783193943742326, 12.706497977605686 ] } },
{ "type": "Feature", "properties": { "id": 138, "name": "Runestone", "size": 3, "confirmed": 1, "type": "Castle" }, "geometry": { "type": "Point", "coordinates": [ 24.969947586010523, 12.407473437821572 ] } },
{ "type": "Feature", "properties": { "id": 139, "name": "Gulltown", "size": 5, "confirmed": 1, "type": "City" }, "geometry": { "type": "Point", "coordinates": [ 24.66157852935816, 11.529088852205739 ] } },
{ "type": "Feature", "properties": { "id": 140, "name": "Longbow Hall", "size": 3, "confirmed": 1, "type": "Castle" }, "geometry": { "type": "Point", "coordinates": [ 23.988773314843904, 14.584745868124642 ] } },
{ "type": "Feature", "properties": { "id": 141, "name": "Snakewood", "size": 3, "confirmed": 1, "type": "Castle" }, "geometry": { "type": "Point", "coordinates": [ 22.428238997845568, 15.472474970608729 ] } },
{ "type": "Feature", "properties": { "id": 142, "name": "Baelish Keep", "size": 1, "confirmed": 0, "type": "Other" }, "geometry": { "type": "Point", "coordinates": [ 25.437173429423201, 15.958389847757914 ] } },
{ "type": "Feature", "properties": { "id": 143, "name": "Coldwater", "size": 3, "confirmed": 1, "type": "Castle" }, "geometry": { "type": "Point", "coordinates": [ 21.90494605322337, 16.631195062272162 ] } },
{ "type": "Feature", "properties": { "id": 144, "name": "Seagard", "size": 3, "confirmed": 1, "type": "Castle" }, "geometry": { "type": "Point", "coordinates": [ 13.074377612723788, 13.295202540305652 ] } },
{ "type": "Feature", "properties": { "id": 145, "name": "The Twins", "size": 3, "confirmed": 1, "type": "Castle" }, "geometry": { "type": "Point", "coordinates": [ 13.298646017561873, 14.4726116657056 ] } },
{ "type": "Feature", "properties": { "id": 146, "name": null, "size": 3, "confirmed": 1, "type": "Castle" }, "geometry": { "type": "Point", "coordinates": [ 13.167822781406324, 14.313754878945289 ] } },
{ "type": "Feature", "properties": { "id": 147, "name": "Greywater Watch", "size": 3, "confirmed": 1, "type": "Castle" }, "geometry": { "type": "Point", "coordinates": [ 14.242442221255478, 17.014320253870558 ] } },
{ "type": "Feature", "properties": { "id": 148, "name": "Moat Cailin", "size": 2, "confirmed": 1, "type": "Ruin" }, "geometry": { "type": "Point", "coordinates": [ 14.821802267087199, 20.154077921603744 ] } },
{ "type": "Feature", "properties": { "id": 149, "name": "Sisterton", "size": 4, "confirmed": 1, "type": "Town" }, "geometry": { "type": "Point", "coordinates": [ 18.802566452963202, 18.285174547953037 ] } },
{ "type": "Feature", "properties": { "id": 150, "name": "Oldcastle", "size": 3, "confirmed": 1, "type": "Castle" }, "geometry": { "type": "Point", "coordinates": [ 18.12976123844895, 19.228970751646642 ] } },
{ "type": "Feature", "properties": { "id": 151, "name": "White Harbor", "size": 5, "confirmed": 1, "type": "City" }, "geometry": { "type": "Point", "coordinates": [ 16.933663079312495, 21.368865114476701 ] } },
{ "type": "Feature", "properties": { "id": 152, "name": "Ramsgate", "size": 3, "confirmed": 1, "type": "Castle" }, "geometry": { "type": "Point", "coordinates": [ 21.204107288104357, 22.471518104930624 ] } },
{ "type": "Feature", "properties": { "id": 153, "name": "Widow's Watch", "size": 3, "confirmed": 1, "type": "Castle" }, "geometry": { "type": "Point", "coordinates": [ 24.222386236550246, 21.901502575967161 ] } },
{ "type": "Feature", "properties": { "id": 154, "name": "Hornwood", "size": 3, "confirmed": 0, "type": "Castle" }, "geometry": { "type": "Point", "coordinates": [ 18.980112273460019, 24.919781524413047 ] } },
{ "type": "Feature", "properties": { "id": 155, "name": "Tower", "size": 1, "confirmed": 0, "type": "Other" }, "geometry": { "type": "Point", "coordinates": [ 18.596987081861627, 25.910300312447919 ] } },
{ "type": "Feature", "properties": { "id": 156, "name": "The Dreadfort", "size": 3, "confirmed": 1, "type": "Castle" }, "geometry": { "type": "Point", "coordinates": [ 19.914563960285374, 27.358700427027216 ] } },
{ "type": "Feature", "properties": { "id": 157, "name": "Cerwyn", "size": 3, "confirmed": 0, "type": "Castle" }, "geometry": { "type": "Point", "coordinates": [ 14.597533862249115, 26.059812582339976 ] } },
{ "type": "Feature", "properties": { "id": 158, "name": "Holdfast", "size": 1, "confirmed": 0, "type": "Other" }, "geometry": { "type": "Point", "coordinates": [ 14.803113233350691, 26.826062965536767 ] } },
{ "type": "Feature", "properties": { "id": 159, "name": "Winterfell", "size": 3, "confirmed": 1, "type": "Castle" }, "geometry": { "type": "Point", "coordinates": [ 14.560155794776101, 26.611139077566936 ] } },
{ "type": "Feature", "properties": { "id": 160, "name": "Crofters' Village", "size": 1, "confirmed": 0, "type": "Other" }, "geometry": { "type": "Point", "coordinates": [ 14.130308018836438, 26.826062965536767 ] } },
{ "type": "Feature", "properties": { "id": 161, "name": "Tumbledown Tower", "size": 1, "confirmed": 0, "type": "Other" }, "geometry": { "type": "Point", "coordinates": [ 14.191047378480089, 27.601657865601808 ] } },
{ "type": "Feature", "properties": { "id": 162, "name": "Deepwood Motte", "size": 3, "confirmed": 1, "type": "Castle" }, "geometry": { "type": "Point", "coordinates": [ 10.658820002280255, 29.358427036833472 ] } },
{ "type": "Feature", "properties": { "id": 163, "name": "Last Hearth", "size": 3, "confirmed": 1, "type": "Castle" }, "geometry": { "type": "Point", "coordinates": [ 19.367909723492534, 31.330120096034964 ] } },
{ "type": "Feature", "properties": { "id": 164, "name": "Karhold", "size": 3, "confirmed": 1, "type": "Castle" }, "geometry": { "type": "Point", "coordinates": [ 23.638353932284399, 29.498594789857275 ] } },
{ "type": "Feature", "properties": { "id": 165, "name": "Queenscrown", "size": 1, "confirmed": 1, "type": "Other" }, "geometry": { "type": "Point", "coordinates": [ 18.153122530619584, 33.787728032385644 ] } },
{ "type": "Feature", "properties": { "id": 166, "name": "Castle Black", "size": 3, "confirmed": 1, "type": "Castle" }, "geometry": { "type": "Point", "coordinates": [ 18.853961295738596, 34.890381022839563 ] } },
{ "type": "Feature", "properties": { "id": 167, "name": "Mole's Town", "size": 1, "confirmed": 0, "type": "Other" }, "geometry": { "type": "Point", "coordinates": [ 18.88199484634336, 34.600700999923703 ] } },
{ "type": "Feature", "properties": { "id": 168, "name": "Shadow Tower", "size": 3, "confirmed": 1, "type": "Castle" }, "geometry": { "type": "Point", "coordinates": [ 16.358975291914906, 34.993170708390352 ] } },
{ "type": "Feature", "properties": { "id": 169, "name": "Westwatch-by-the-Bridge", "size": 1, "confirmed": 1, "type": "Other" }, "geometry": { "type": "Point", "coordinates": [ 16.050606235262538, 34.993170708390352 ] } },
{ "type": "Feature", "properties": { "id": 170, "name": "Sentinel Stand", "size": 1, "confirmed": 1, "type": "Other" }, "geometry": { "type": "Point", "coordinates": [ 16.709394674474417, 35.016532000560986 ] } },
{ "type": "Feature", "properties": { "id": 171, "name": "Greyguard", "size": 1, "confirmed": 1, "type": "Other" }, "geometry": { "type": "Point", "coordinates": [ 17.073830832336302, 34.927759090312577 ] } },
{ "type": "Feature", "properties": { "id": 172, "name": "Stonedoor", "size": 1, "confirmed": 1, "type": "Other" }, "geometry": { "type": "Point", "coordinates": [ 17.414905698027557, 35.053910068034 ] } },
{ "type": "Feature", "properties": { "id": 173, "name": "Hoarfrost Hill", "size": 1, "confirmed": 1, "type": "Other" }, "geometry": { "type": "Point", "coordinates": [ 17.653190878168022, 35.039893292731612 ] } },
{ "type": "Feature", "properties": { "id": 174, "name": "Icemark", "size": 1, "confirmed": 1, "type": "Other" }, "geometry": { "type": "Point", "coordinates": [ 17.933526384215629, 34.993170708390352 ] } },
{ "type": "Feature", "properties": { "id": 175, "name": "Nightfort", "size": 1, "confirmed": 1, "type": "Other" }, "geometry": { "type": "Point", "coordinates": [ 18.167139305921964, 34.951120382483211 ] } },
{ "type": "Feature", "properties": { "id": 176, "name": "Deep Lake", "size": 1, "confirmed": 1, "type": "Other" }, "geometry": { "type": "Point", "coordinates": [ 18.354029643287035, 34.913742315010197 ] } },
{ "type": "Feature", "properties": { "id": 177, "name": "Queensgate", "size": 1, "confirmed": 1, "type": "Other" }, "geometry": { "type": "Point", "coordinates": [ 18.568953531256867, 34.871691989103056 ] } },
{ "type": "Feature", "properties": { "id": 178, "name": "Oakensheild", "size": 1, "confirmed": 1, "type": "Other" }, "geometry": { "type": "Point", "coordinates": [ 19.134296801786203, 34.810952629459408 ] } },
{ "type": "Feature", "properties": { "id": 179, "name": "Woodswatch-by-the-Pool", "size": 1, "confirmed": 1, "type": "Other" }, "geometry": { "type": "Point", "coordinates": [ 19.372581981926668, 34.796935854157027 ] } },
{ "type": "Feature", "properties": { "id": 180, "name": "Sable Hall", "size": 1, "confirmed": 1, "type": "Other" }, "geometry": { "type": "Point", "coordinates": [ 19.680951038579039, 34.75021326981576 ] } },
{ "type": "Feature", "properties": { "id": 181, "name": "Rimegate", "size": 1, "confirmed": 1, "type": "Other" }, "geometry": { "type": "Point", "coordinates": [ 19.965958803060769, 34.731524236079252 ] } },
{ "type": "Feature", "properties": { "id": 182, "name": "Long Barrow", "size": 1, "confirmed": 1, "type": "Other" }, "geometry": { "type": "Point", "coordinates": [ 20.190227207898854, 34.694146168606238 ] } },
{ "type": "Feature", "properties": { "id": 183, "name": "Torches", "size": 1, "confirmed": 1, "type": "Other" }, "geometry": { "type": "Point", "coordinates": [ 20.409823354302812, 34.670784876435604 ] } },
{ "type": "Feature", "properties": { "id": 184, "name": "Greenguard", "size": 1, "confirmed": 1, "type": "Other" }, "geometry": { "type": "Point", "coordinates": [ 20.573352399497249, 34.628734550528463 ] } },
{ "type": "Feature", "properties": { "id": 185, "name": "Eastwatch-by-the-Sea", "size": 3, "confirmed": 1, "type": "Castle" }, "geometry": { "type": "Point", "coordinates": [ 20.718192410955179, 34.792263595722901 ] } },
{ "type": "Feature", "properties": { "id": 186, "name": "Whitetree", "size": 1, "confirmed": 1, "type": "Other" }, "geometry": { "type": "Point", "coordinates": [ 18.167139305921964, 35.409001709027628 ] } },
{ "type": "Feature", "properties": { "id": 187, "name": "Craster's Keep", "size": 1, "confirmed": 1, "type": "Other" }, "geometry": { "type": "Point", "coordinates": [ 17.625157327563262, 36.296730811511715 ] } },
{ "type": "Feature", "properties": { "id": 188, "name": "Fist of the First Men", "size": 1, "confirmed": 1, "type": "Other" }, "geometry": { "type": "Point", "coordinates": [ 16.24216883106174, 37.212493464600556 ] } },
{ "type": "Feature", "properties": { "id": 189, "name": "Fishing Village", "size": 1, "confirmed": 0, "type": "Other" }, "geometry": { "type": "Point", "coordinates": [ 5.140882791576549, 24.48058923160513 ] } },
{ "type": "Feature", "properties": { "id": 190, "name": "Pennytree", "size": 1, "confirmed": 0, "type": "Other" }, "geometry": { "type": "Point", "coordinates": [ 15.513296515337961, 8.926640904397118 ] } },
{ "type": "Feature", "properties": { "id": 191, "name": "Lys", "size": 5, "confirmed": 1, "type": "City" }, "geometry": { "type": "Point", "coordinates": [ 31.693327472718931, -8.996142448913155 ] } },
{ "type": "Feature", "properties": { "id": 192, "name": "Tyrosh", "size": 5, "confirmed": 1, "type": "City" }, "geometry": { "type": "Point", "coordinates": [ 28.511519479078594, -3.562305890023715 ] } },
{ "type": "Feature", "properties": { "id": 193, "name": "Myr", "size": 5, "confirmed": 1, "type": "City" }, "geometry": { "type": "Point", "coordinates": [ 33.697726340959306, -2.590476135725346 ] } },
{ "type": "Feature", "properties": { "id": 194, "name": "Pentos", "size": 5, "confirmed": 1, "type": "City" }, "geometry": { "type": "Point", "coordinates": [ 31.127984202189584, 4.632835403434626 ] } },
{ "type": "Feature", "properties": { "id": 195, "name": "Ghoyan Drohe", "size": 2, "confirmed": 1, "type": "Ruin" }, "geometry": { "type": "Point", "coordinates": [ 35.099403871197332, 5.595320640864728 ] } },
{ "type": "Feature", "properties": { "id": 196, "name": "Norvos", "size": 5, "confirmed": 1, "type": "City" }, "geometry": { "type": "Point", "coordinates": [ 38.313917673876539, 8.763111859202681 ] } },
{ "type": "Feature", "properties": { "id": 197, "name": "Evenfall Hall", "size": 3, "confirmed": 1, "type": "Castle" }, "geometry": { "type": "Point", "coordinates": [ 24.799410153164867, 0.271282155177303 ] } },
{ "type": "Feature", "properties": { "id": 198, "name": "Parchments", "size": 1, "confirmed": 0, "type": "Other" }, "geometry": { "type": "Point", "coordinates": [ 24.276117208542669, 1.401968696235983 ] } },
{ "type": "Feature", "properties": { "id": 199, "name": "Braavos", "size": 3, "confirmed": 1, "type": "Castle" }, "geometry": { "type": "Point", "coordinates": [ 30.976135803080446, 16.241061483022591 ] } },
{ "type": "Feature", "properties": { "id": 200, "name": "Lorath", "size": 3, "confirmed": 1, "type": "Castle" }, "geometry": { "type": "Point", "coordinates": [ 36.227754283038934, 14.783316851575037 ] } },
{ "type": "Feature", "properties": { "id": 201, "name": "Qohor", "size": 5, "confirmed": 1, "type": "City" }, "geometry": { "type": "Point", "coordinates": [ 44.955533037987735, 4.747305735070746 ] } },
{ "type": "Feature", "properties": { "id": 202, "name": "Ar Noy", "size": 2, "confirmed": 1, "type": "Ruin" }, "geometry": { "type": "Point", "coordinates": [ 42.02135474135612, 2.579377821635923 ] } },
{ "type": "Feature", "properties": { "id": 203, "name": "Ny Sar", "size": 2, "confirmed": 1, "type": "Ruin" }, "geometry": { "type": "Point", "coordinates": [ 38.713395769994371, 3.3082501373597 ] } },
{ "type": "Feature", "properties": { "id": 204, "name": "The Sorrows (Chroyane)", "size": 2, "confirmed": 1, "type": "Ruin" }, "geometry": { "type": "Point", "coordinates": [ 40.488853974962552, -1.887301241389281 ] } },
{ "type": "Feature", "properties": { "id": 205, "name": "Selhorys", "size": 4, "confirmed": 1, "type": "Town" }, "geometry": { "type": "Point", "coordinates": [ 41.236415324422836, -5.344772482643073 ] } },
{ "type": "Feature", "properties": { "id": 206, "name": "Valysar", "size": 4, "confirmed": 1, "type": "Town" }, "geometry": { "type": "Point", "coordinates": [ 41.180348223213315, -7.138919721347754 ] } },
{ "type": "Feature", "properties": { "id": 207, "name": "Volon Therys", "size": 4, "confirmed": 1, "type": "Town" }, "geometry": { "type": "Point", "coordinates": [ 41.927909572673599, -8.260261745538173 ] } },
{ "type": "Feature", "properties": { "id": 208, "name": "Sar Mell", "size": 2, "confirmed": 1, "type": "Ruin" }, "geometry": { "type": "Point", "coordinates": [ 42.376446382349769, -8.166816576855638 ] } },
{ "type": "Feature", "properties": { "id": 209, "name": "Volantis", "size": 5, "confirmed": 1, "type": "City" }, "geometry": { "type": "Point", "coordinates": [ 43.637956159563991, -9.213402466100035 ] } },
{ "type": "Feature", "properties": { "id": 210, "name": null, "size": 1, "confirmed": 1, "type": "Other" }, "geometry": { "type": "Point", "coordinates": [ 51.36587160960967, -12.423244010345122 ] } },
{ "type": "Feature", "properties": { "id": 211, "name": null, "size": 2, "confirmed": 1, "type": "Ruin" }, "geometry": { "type": "Point", "coordinates": [ 53.99168084958891, -11.362641345798352 ] } },
{ "type": "Feature", "properties": { "id": 212, "name": "Mantarys", "size": 5, "confirmed": 1, "type": "City" }, "geometry": { "type": "Point", "coordinates": [ 56.533389437753868, -11.647649110280085 ] } },
{ "type": "Feature", "properties": { "id": 213, "name": null, "size": 2, "confirmed": 1, "type": "Ruin" }, "geometry": { "type": "Point", "coordinates": [ 52.889027859134998, -16.30121851067031 ] } },
{ "type": "Feature", "properties": { "id": 214, "name": "Oros", "size": 2, "confirmed": 1, "type": "Ruin" }, "geometry": { "type": "Point", "coordinates": [ 55.869928740107866, -18.534558042182908 ] } },
{ "type": "Feature", "properties": { "id": 215, "name": "Elyria", "size": 5, "confirmed": 1, "type": "City" }, "geometry": { "type": "Point", "coordinates": [ 57.729487596890316, -13.768854439373619 ] } },
{ "type": "Feature", "properties": { "id": 216, "name": "Tolos", "size": 5, "confirmed": 1, "type": "City" }, "geometry": { "type": "Point", "coordinates": [ 59.131165127128341, -13.21752794414666 ] } },
{ "type": "Feature", "properties": { "id": 217, "name": "Ghozai", "size": 2, "confirmed": 1, "type": "Ruin" }, "geometry": { "type": "Point", "coordinates": [ 60.691699444126684, -15.273321655162434 ] } },
{ "type": "Feature", "properties": { "id": 218, "name": "Velos", "size": 2, "confirmed": 1, "type": "Ruin" }, "geometry": { "type": "Point", "coordinates": [ 61.046791085120311, -17.13288051194489 ] } },
{ "type": "Feature", "properties": { "id": 219, "name": null, "size": 2, "confirmed": 1, "type": "Ruin" }, "geometry": { "type": "Point", "coordinates": [ 60.663665893521923, -16.525486915508409 ] } },
{ "type": "Feature", "properties": { "id": 220, "name": "Astapor", "size": 5, "confirmed": 1, "type": "City" }, "geometry": { "type": "Point", "coordinates": [ 64.915421068577288, -15.23594358768942 ] } },
{ "type": "Feature", "properties": { "id": 221, "name": "Yunkai", "size": 5, "confirmed": 1, "type": "City" }, "geometry": { "type": "Point", "coordinates": [ 65.849872755402629, -11.245834884945147 ] } },
{ "type": "Feature", "properties": { "id": 222, "name": "Meereen", "size": 5, "confirmed": 1, "type": "City" }, "geometry": { "type": "Point", "coordinates": [ 67.130071566353365, -9.610544433000776 ] } },
{ "type": "Feature", "properties": { "id": 223, "name": "Lhazarene Village", "size": 1, "confirmed": 0, "type": "Other" }, "geometry": { "type": "Point", "coordinates": [ 73.035806227089608, -7.138919721347712 ] } },
{ "type": "Feature", "properties": { "id": 224, "name": "Vaes Dothrak", "size": 5, "confirmed": 0, "type": "City" }, "geometry": { "type": "Point", "coordinates": [ 64.938782360747908, -1.144412150363081 ] } },
{ "type": "Feature", "properties": { "id": 225, "name": "Old Ghis", "size": 2, "confirmed": 1, "type": "Ruin" }, "geometry": { "type": "Point", "coordinates": [ 65.807822429495488, -19.702622650714616 ] } },
{ "type": "Feature", "properties": { "id": 226, "name": "New Ghis", "size": 5, "confirmed": 1, "type": "City" }, "geometry": { "type": "Point", "coordinates": [ 66.770307666925589, -23.571252634171586 ] } },
{ "type": "Feature", "properties": { "id": 227, "name": "Zamettar", "size": 2, "confirmed": 1, "type": "Ruin" }, "geometry": { "type": "Point", "coordinates": [ 64.63975782096378, -31.205722915534736 ] } },
{ "type": "Feature", "properties": { "id": 228, "name": "Yeen", "size": 2, "confirmed": 1, "type": "Ruin" }, "geometry": { "type": "Point", "coordinates": [ 65.691015968642304, -33.976372166971913 ] } },
{ "type": "Feature", "properties": { "id": 229, "name": "Gogossos", "size": 2, "confirmed": 1, "type": "Ruin" }, "geometry": { "type": "Point", "coordinates": [ 61.392538209245679, -33.602591492241757 ] } },
{ "type": "Feature", "properties": { "id": 230, "name": "Flint's Finger", "size": 3, "confirmed": 1, "type": "Castle" }, "geometry": { "type": "Point", "coordinates": [ 8.016657857781524, 18.511779082008186 ] } },
{ "type": "Feature", "properties": { "id": 231, "name": "Barrowton", "size": 4, "confirmed": 1, "type": "Town" }, "geometry": { "type": "Point", "coordinates": [ 11.203138109855981, 21.857116120842957 ] } },
{ "type": "Feature", "properties": { "id": 232, "name": "Torrhen's Square", "size": 3, "confirmed": 1, "type": "Castle" }, "geometry": { "type": "Point", "coordinates": [ 11.866598807501983, 24.604404080109493 ] } },
{ "type": "Feature", "properties": { "id": 233, "name": "Bhorash", "size": 2, "confirmed": 1, "type": "Ruin" }, "geometry": { "type": "Point", "coordinates": [ 62.193837082112005, -10.130148540433204 ] } },
{ "type": "Feature", "properties": { "id": 234, "name": "Pyke", "size": 3, "confirmed": 1, "type": "Castle" }, "geometry": { "type": "Point", "coordinates": [ 7.548877424568763, 11.060546672953011 ] } },
{ "type": "Feature", "properties": { "id": 235, "name": "Pebbleton", "size": 1, "confirmed": 0, "type": "Other" }, "geometry": { "type": "Point", "coordinates": [ 7.043347117456695, 11.58577296605646 ] } },
{ "type": "Feature", "properties": { "id": 236, "name": "Hammerhorn", "size": 1, "confirmed": 0, "type": "Other" }, "geometry": { "type": "Point", "coordinates": [ 6.097939789870489, 11.854951441271973 ] } },
{ "type": "Feature", "properties": { "id": 237, "name": "Nagga's Ribs", "size": 1, "confirmed": 0, "type": "Other" }, "geometry": { "type": "Point", "coordinates": [ 6.616600754310144, 12.130695245151284 ] } },
{ "type": "Feature", "properties": { "id": 238, "name": "Castle Goodbrother", "size": 1, "confirmed": 0, "type": "Other" }, "geometry": { "type": "Point", "coordinates": [ 6.820125942887731, 12.31452444773749 ] } },
{ "type": "Feature", "properties": { "id": 239, "name": "Ten Towers", "size": 3, "confirmed": 1, "type": "Castle" }, "geometry": { "type": "Point", "coordinates": [ 9.131121632542904, 12.137260573815077 ] } },
{ "type": "Feature", "properties": { "id": 240, "name": "Faircastle", "size": 3, "confirmed": 1, "type": "Castle" }, "geometry": { "type": "Point", "coordinates": [ 7.00395514547394, 7.351135977909905 ] } },
{ "type": "Feature", "properties": { "id": 241, "name": "Tyria", "size": 2, "confirmed": 1, "type": "Ruin" }, "geometry": { "type": "Point", "coordinates": [ 55.383862068965335, -19.967196592133206 ] } },
{ "type": "Feature", "properties": { "id": 242, "name": "Valyria", "size": 2, "confirmed": 1, "type": "Ruin" }, "geometry": { "type": "Point", "coordinates": [ 54.753590517241193, -22.232234981141833 ] } },
{ "type": "Feature", "properties": { "id": 243, "name": null, "size": 2, "confirmed": 1, "type": "Ruin" }, "geometry": { "type": "Point", "coordinates": [ 57.799903017241192, -21.930229862607348 ] } },
{ "type": "Feature", "properties": { "id": 244, "name": null, "size": 2, "confirmed": 1, "type": "Ruin" }, "geometry": { "type": "Point", "coordinates": [ 52.317853582973946, -20.774732017779758 ] } },
{ "type": "Feature", "properties": { "id": 245, "name": null, "size": 2, "confirmed": 1, "type": "Ruin" }, "geometry": { "type": "Point", "coordinates": [ 54.083926993534305, -24.6417106007539 ] } },
{ "type": "Feature", "properties": { "id": 246, "name": "Qarth", "size": 5, "confirmed": 0, "type": "City" }, "geometry": { "type": "Point", "coordinates": [ 87.984001549030026, -34.588183526400464 ] } },
{ "type": "Feature", "properties": { "id": 247, "name": "Lord Hewett's Town", "size": 1, "confirmed": 0, "type": "Other" }, "geometry": { "type": "Point", "coordinates": [ 7.68674932650837, -1.922390759697838 ] } }
]
}
